{
  "ChIJ_b5B-LE0TTER0WEXA8n5gDY": {
    "city": "Beihai",
    "address": "Beihai, Guangxi, China",
    "location": {
      "lat": 21.481291,
      "lng": 109.120161
    }
  },
  "ChIJM1EhdTb0pDYR4UpwHRnBhv8": {
    "city": "Guilin",
    "address": "Guilin, Guangxi, China",
    "location": {
      "lat": 25.234479,
      "lng": 110.179954
    }
  },
  "ChIJ6ZCbaAPdYDYRVyMhVjeyeOs": {
    "city": "Baoji",
    "address": "Baoji, Shaanxi, China",
    "location": {
      "lat": 34.363184,
      "lng": 107.237743
    }
  },
  "ChIJJ-u_5XmDFDQRVtBolgpnoCg": {
    "city": "Xiamen",
    "address": "Xiamen, Fujian, China",
    "location": {
      "lat": 24.479834,
      "lng": 118.089425
    }
  },
  "ChIJ73K1ws1btDcRAgElgPDLVW4": {
    "city": "Zhangye",
    "address": "Zhangye, Gansu, China",
    "location": {
      "lat": 38.925875,
      "lng": 100.449818
    }
  },
  "ChIJezo14dQNQjERo8zfXkM24wo": {
    "city": "tp. Hội An",
    "address": "tp. Hội An, Quảng Nam, Vietnam",
    "location": {
      "lat": 15.8800584,
      "lng": 108.3380469
    }
  },
  "ChIJZVKVEX6lpTYRBQDurljkC0c": {
    "city": "Yangshuo",
    "address": "Yangshuo, Guilin, Guangxi, China",
    "location": {
      "lat": 24.778481,
      "lng": 110.496593
    }
  },
  "ChIJoRyG2ZurNTERqRfKcnt_iOc": {
    "city": "Hanoi",
    "address": "Hanoi, Hoàn Kiếm, Hanoi, Vietnam",
    "location": {
      "lat": 21.0277644,
      "lng": 105.8341598
    }
  },
  "ChIJNxvsVcNnvzYRVWQx2MCBMxc": {
    "city": "Guiyang",
    "address": "Guiyang, Guizhou, China",
    "location": {
      "lat": 26.647661,
      "lng": 106.630154
    }
  },
  "ChIJ0T2NLikpdTERKxE8d61aX_E": {
    "city": "Ho Chi Minh City",
    "address": "Ho Chi Minh City, Ho Chi Minh 70000, Vietnam",
    "location": {
      "lat": 10.8230989,
      "lng": 106.6296638
    }
  },
  "ChIJEyolkscZQjERh2RDRKDjFPw": {
    "city": "Da Nang",
    "address": "Da Nang, Hải Châu District, Da Nang, Vietnam",
    "location": {
      "lat": 16.0544068,
      "lng": 108.2021667
    }
  },
  "ChIJpdA4dTgDTzER9tAWQRQTSbg": {
    "city": "Hainan",
    "address": "Hainan, China",
    "location": {
      "lat": 20.017378,
      "lng": 110.349229
    }
  },
  "ChIJCzYy5IS16lQRQrfeQ5K5Oxw": {
    "city": "United States",
    "address": "United States",
    "location": {
      "lat": 37.09024,
      "lng": -95.712891
    }
  },
  "ChIJU7AqpP99lzYRxiv3b5fuAOs": {
    "city": "Fenghuang",
    "address": "Fenghuang, Xiangxi, Hunan, China",
    "location": {
      "lat": 27.947978,
      "lng": 109.598479
    }
  },
  "ChIJt1faVaO4JzcRVrjXyfaoTtw": {
    "city": "Dali",
    "address": "Dali, Yunnan, China",
    "location": {
      "lat": 25.606486,
      "lng": 100.267638
    }
  },
  "ChIJmaqaQym2SzQROuhNgoPRv6c": {
    "city": "Hangzhou",
    "address": "Hangzhou, Zhejiang, China",
    "location": {
      "lat": 30.274085,
      "lng": 120.15507
    }
  },
  "ChIJxytco5X4AjQRFeTqrXXgWQ4": {
    "city": "Guangzhou",
    "address": "Guangzhou, Guangdong, China",
    "location": {
      "lat": 23.12911,
      "lng": 113.264385
    }
  },
  "ChIJXW-7kH462jARZ0ObpXBi1Jg": {
    "city": "Chiang Mai",
    "address": "Chiang Mai, Mueang Chiang Mai District, Chiang Mai, Thailand",
    "location": {
      "lat": 18.7060641,
      "lng": 98.9817163
    }
  },
  "ChIJuSwU55ZS8DURiqkPryBWYrk": {
    "city": "Beijing",
    "address": "Beijing, Beijing, China",
    "location": {
      "lat": 39.904211,
      "lng": 116.407395
    }
  },
  "ChIJ82ENKDJgHTERIEjiXbIAAQE": {
    "city": "Bangkok",
    "address": "Bangkok, Thailand",
    "location": {
      "lat": 13.7563309,
      "lng": 100.5017651
    }
  },
  "ChIJ4eIGNFXmAGAR5y9q5G7BW8U": {
    "city": "Osaka",
    "address": "Osaka, Osaka Prefecture, Japan",
    "location": {
      "lat": 34.6937378,
      "lng": 135.5021651
    }
  },
  "ChIJh8zyEwujJzcRH9sAXP0WWbI": {
    "city": "Shuanglangzhen",
    "address": "Shuanglangzhen, Dali, Dali, Yunnan, China, 671000",
    "location": {
      "lat": 25.90968,
      "lng": 100.193781
    }
  },
  "ChIJMzz1sUBwsjURoWTDI5QSlQI": {
    "city": "Shanghai",
    "address": "Shanghai, Shanghai, China",
    "location": {
      "lat": 31.230416,
      "lng": 121.473701
    }
  },
  "ChIJ8cM8zdaoAWARPR27azYdlsA": {
    "city": "Kyoto",
    "address": "Kyoto, Kyoto Prefecture, Japan",
    "location": {
      "lat": 35.0116363,
      "lng": 135.7680294
    }
  },
  "ChIJwQyneMU3AWARIiZJubDZ_ko": {
    "city": "Nara",
    "address": "Nara, Nara Prefecture, Japan",
    "location": {
      "lat": 34.6850869,
      "lng": 135.8050002
    }
  },
  "ChIJ88g14uB6ATQR9qyFtCzje8Y": {
    "city": "Macau",
    "address": "Macau",
    "location": {
      "lat": 22.198745,
      "lng": 113.543873
    }
  },
  "ChIJUaq7v1frbjQRNXYqVp3u5Zc": {
    "city": "Chiayi County",
    "address": "Chiayi County, Taiwan",
    "location": {
      "lat": 23.4518428,
      "lng": 120.2554615
    }
  },
  "ChIJ7yJ5-d8XaTQRf0SmfuQ-Uoc": {
    "city": "Taichung City",
    "address": "Taichung City, Taiwan",
    "location": {
      "lat": 24.1477358,
      "lng": 120.6736482
    }
  },
  "ChIJ6dMLQOavIDcRqF1HPYNY1Lg": {
    "city": "Lijiang",
    "address": "Lijiang, Yunnan, China",
    "location": {
      "lat": 26.855047,
      "lng": 100.227751
    }
  },
  "ChIJhw4sHmL87TURMUCIMLeUcYQ": {
    "city": "Tianjin",
    "address": "Tianjin, Tianjin, China",
    "location": {
      "lat": 39.084158,
      "lng": 117.200983
    }
  },
  "ChIJAxIodMGzaDQRcx386sY33lo": {
    "city": "Hualien County",
    "address": "Hualien County, Taiwan",
    "location": {
      "lat": 23.9871589,
      "lng": 121.6015714
    }
  },
  "ChIJb_KF3fiuLjQRECJYbKzJwjk": {
    "city": "Wuhan",
    "address": "Wuhan, Hubei, China",
    "location": {
      "lat": 30.593099,
      "lng": 114.305393
    }
  },
  "ChIJ51cu8IcbXWARiRtXIothAS4": {
    "city": "Tokyo",
    "address": "Tokyo, Japan",
    "location": {
      "lat": 35.6894875,
      "lng": 139.6917064
    }
  },
  "ChIJy9MnEsOD0DYRNgpPmKTzscw": {
    "city": "Kunming",
    "address": "Kunming, Yunnan, China",
    "location": {
      "lat": 24.880095,
      "lng": 102.832892
    }
  },
  "ChIJnWqb8JRl1zURLO3M9BnuMnk": {
    "city": "Zhengzhou",
    "address": "Zhengzhou, Henan, China",
    "location": {
      "lat": 34.746611,
      "lng": 113.625328
    }
  },
  "ChIJXUT4imh_jDURBHiUKgJjOmw": {
    "city": "Beidaihe",
    "address": "Beidaihe, Qinhuangdao, Hebei, China",
    "location": {
      "lat": 39.834596,
      "lng": 119.484522
    }
  },
  "ChIJkVLh0Aj0AzQRyYCStw1V7v0": {
    "city": "Shenzhen",
    "address": "Shenzhen, Guangdong, China",
    "location": {
      "lat": 22.543096,
      "lng": 114.057865
    }
  },
  "ChIJQ0_m87o0kzYRIbOI3BaGn94": {
    "city": "Chongqing",
    "address": "Chongqing, Chongqing, China",
    "location": {
      "lat": 29.56301,
      "lng": 106.551556
    }
  },
  "ChIJG3R6elFDbjQRNypzVEqiJkg": {
    "city": "Kaohsiung City",
    "address": "Kaohsiung City, Taiwan",
    "location": {
      "lat": 22.6272784,
      "lng": 120.3014353
    }
  },
  "ChIJdZOLiiMR2jERxPWrUs9peIg": {
    "city": "Singapore",
    "address": "Singapore",
    "location": {
      "lat": 1.352083,
      "lng": 103.819836
    }
  },
  "ChIJE-qsHbkFwjURVEjOPZZQMGE": {
    "city": "Jinan",
    "address": "Jinan, Shandong, China",
    "location": {
      "lat": 36.651216,
      "lng": 117.12
    }
  },
  "ChIJIXdEACPF7zYRAg4kLs5Shrk": {
    "city": "Chengdu",
    "address": "Chengdu, Sichuan, China",
    "location": {
      "lat": 30.572816,
      "lng": 104.066801
    }
  },
  "ChIJs4CKJ6MowjUR4ZnNCTrbCVs": {
    "city": "Taishan Mountain",
    "address": "Taishan Mountain, Taishan, Tai'an, China",
    "location": {
      "lat": 36.2558333,
      "lng": 117.1055555
    }
  },
  "ChIJwSxKnH4xYTcRmdoThGIswR8": {
    "city": "Tibet",
    "address": "Tibet, China",
    "location": {
      "lat": 29.647535,
      "lng": 91.117525
    }
  },
  "ChIJufLF1VFNMlERZInZ2RR3Gto": {
    "city": "North Pole",
    "address": "North Pole, AK 99705, USA",
    "location": {
      "lat": 64.7511111,
      "lng": -147.3494444
    }
  },
  "ChIJJ2rVRZr0SjQRbEf6WHUaXFE": {
    "city": "Nanjixiang",
    "address": "Nanjixiang, Ningguo, Xuancheng, Anhui, China",
    "location": {
      "lat": 30.402831,
      "lng": 119.076906
    }
  },
  "ChIJvXv7qr-ZtSQRiWKVgeEJRUE": {
    "city": "Maldives",
    "address": "Maldives",
    "location": {
      "lat": 1.977247,
      "lng": 73.5361034
    }
  },
  "ChIJcSZPllwVsBQRKl9iKtTb2UA": {
    "city": "Turkey",
    "address": "Turkey",
    "location": {
      "lat": 38.963745,
      "lng": 35.243322
    }
  },
  "ChIJ38WHZwf9KysRUhNblaFnglM": {
    "city": "Australia",
    "address": "Australia",
    "location": {
      "lat": -25.274398,
      "lng": 133.775136
    }
  },
  "ChIJmQrivHKsQjQR4MIK3c41aj8": {
    "city": "Taipei",
    "address": "Taipei, New Taipei City, Taiwan",
    "location": {
      "lat": 25.0329694,
      "lng": 121.5654177
    }
  },
  "ChIJE_4_lcx8bjQRTnbcpapMf9Q": {
    "city": "Tainan City",
    "address": "Tainan City, Taiwan",
    "location": {
      "lat": 22.9998999,
      "lng": 120.2268758
    }
  },
  "ChIJD5gyo-3iAzQRfMnq27qzivA": {
    "city": "Hong Kong",
    "address": "Hong Kong",
    "location": {
      "lat": 22.396428,
      "lng": 114.109497
    }
  },
  "ChIJMXJzSkrB6jcRcsi_xsC_YXQ": {
    "city": "Dunhuang",
    "address": "Dunhuang, Jiuquan, Gansu, China",
    "location": {
      "lat": 40.142128,
      "lng": 94.66196699999999
    }
  },
  "ChIJa_D4gtUPljUR8_JMYfqCTWE": {
    "city": "Qingdao",
    "address": "Qingdao, Shandong, China",
    "location": {
      "lat": 36.067108,
      "lng": 120.382609
    }
  },
  "ChIJv_gwtaEfxTYRDhaXADtzRQc": {
    "city": "Qujing",
    "address": "Qujing, Yunnan, China",
    "location": {
      "lat": 25.49,
      "lng": 103.796167
    }
  },
  "ChIJYRRkpvhkQ14R1SygWnOSfF4": {
    "city": "Harbin",
    "address": "Harbin, Heilongjiang, China",
    "location": {
      "lat": 45.80377499999999,
      "lng": 126.534967
    }
  },
  "ChIJoQ8Q6NNB0S0RkOYkS7EPkSQ": {
    "city": "Bali",
    "address": "Bali, Indonesia",
    "location": {
      "lat": -8.4095178,
      "lng": 115.188916
    }
  },
  "ChIJzdpj34-xcTQR3qu0eqglj0U": {
    "city": "Kending Road",
    "address": "Kending Rd, Hengchun Township, Pingtung County, Taiwan 946",
    "location": {
      "lat": 21.9459338,
      "lng": 120.7926105
    }
  },
  "ChIJ96COeNtuqzMR-zf8W5v-ndc": {
    "city": "Dumaguete",
    "address": "Dumaguete, Negros Oriental, Philippines",
    "location": {
      "lat": 9.3068402,
      "lng": 123.3054467
    }
  }
}
